{"Cantor Film Center": {"lat": 40.7311756, "lng": -73.9943571, "address": "36 E 8th St, New York, NY 10003, United States", "id": "ChIJaa7TDppZwokRzuXsN2zH8zY", "url": "https://maps.google.com/?cid=3959727764997465550", "name": "Iris & B. Gerald Cantor Film Center", "name_nyu": "Cantor Film Center", "city": "New York", "borough": "Manhattan"}, "Global Center For Academic & Spiritual Life, 238 Thompson Street": {"lat": 40.7299351, "lng": -73.99828959999999, "address": "238 Thompson St, New York, NY 10012, United States", "id": "ChIJw4UQz41ZwokR9W80CV5Pu_c", "url": "https://maps.google.com/?cid=17850948813313044469", "name": "NYU Global Center for Academic and Spiritual Life", "name_nyu": "Global Center for Academic & Spiritual Life, 238 Thompson Street", "city": "New York", "borough": "Manhattan"}, "7 E 12Th St": {"lat": 40.7345775, "lng": -73.9935856, "address": "7 East12th Street, 7 E 12th St, New York, NY 10003, USA", "id": "ChIJx8CANJhZwokRY4RXi3pGWKE", "url": "https://maps.google.com/?q=7+East12th+Street&ftid=0x89c259983480c0c7:0xa158467a8b578463", "name": "7 East12th Street", "name_nyu": "7 E 12th St", "city": "New York", "borough": "Manhattan"}, "Silver Center": {"lat": 40.7302659, "lng": -73.9954009, "address": "32 Waverly Pl, New York, NY 10003, United States", "id": "ChIJBVQLmZBZwokRtMZZ7BE9ra0", "url": "https://maps.google.com/?cid=12514726086721521332", "name": "Silver Center for Arts and Science", "name_nyu": "Silver Center", "city": "New York", "borough": "Manhattan"}, "25 W 4Th St": {"lat": 40.7292159, "lng": -73.9954494, "address": "25 West 4th Street, New York, NY 10012, USA", "id": "ChIJuQXScJBZwokRB_ck0C8hKLo", "url": "https://maps.google.com/?q=25+West+4th+Street,+New+York,+NY+10012,+USA&ftid=0x89c2599070d205b9:0xba28212fd024f707", "name": "25 West 4th Street", "name_nyu": "25 W 4th St", "city": "New York", "borough": "Manhattan"}, "Tisch Hall": {"lat": 40.7288174, "lng": -73.9962844, "address": "40 West 4th Street, New York, NY 10012, United States", "id": "ChIJX2_IaZBZwokRLUPmPJAohao", "url": "https://maps.google.com/?cid=12287271758312391469", "name": "Tisch Hall (TISC)", "name_nyu": "Tisch Hall", "city": "New York", "borough": "Manhattan"}, "Bobst Library": {"lat": 40.7296104, "lng": -73.9970712, "address": "70 Washington Square S, New York, NY 10012, United States", "id": "ChIJhwizUZBZwokRoumg8C3dKGA", "url": "https://maps.google.com/?cid=6929031216089852322", "name": "Elmer Holmes Bobst Library", "name_nyu": "Bobst Library", "city": "New York", "borough": "Manhattan"}, "12 Waverly Pl": {"lat": 40.7322421, "lng": -73.9986706, "address": "12 Waverly Pl, New York, NY 10011, USA", "id": "EiYxMiBXYXZlcmx5IFBsLCBOZXcgWW9yaywgTlkgMTAwMTEsIFVTQSIwEi4KFAoSCW8eVkqRWcKJER-SW_qH5WzvEAwqFAoSCVk5lZyWWcKJEcrDO6Tp1U6K", "url": "https://maps.google.com/?q=12+Waverly+Pl,+New+York,+NY+10011,+USA&ftid=0x89c259914a561e6f:0x5dac3876db3c44a7", "name": "12 Waverly Pl", "name_nyu": "12 Waverly Pl", "city": "New York", "borough": "Manhattan"}, "Meyer Hall": {"lat": 40.7291091, "lng": -73.9942195, "address": "4 Washington Pl, New York, NY 10003, United States", "id": "ChIJtXjyhJpZwokRBSnDTEjgYIA", "url": "https://maps.google.com/?cid=9250640235749124357", "name": "Meyer Hall", "name_nyu": "Meyer Hall", "city": "New York", "borough": "Manhattan"}, "Academic Resource Center, 18 Washington Place": {"lat": 40.7298286, "lng": -73.995666, "address": "18 Washington Pl, New York, NY 10003, United States", "id": "ChIJk619YpBZwokRkz-u05XkV1Q", "url": "https://maps.google.com/?cid=6077577554312445843", "name": "NYU Academic Resource Center", "name_nyu": "Academic Resource Center, 18 Washington Place", "city": "New York", "borough": "Manhattan"}, "5 Washington Pl": {"lat": 40.8116614, "lng": -73.99134959999999, "address": "5 Washington Pl, Cliffside Park, NJ 07010, USA", "id": "ChIJUwNyGMn3wokRo2mE5dKR7wM", "url": "https://maps.google.com/?q=5+Washington+Pl,+Cliffside+Park,+NJ+07010,+USA&ftid=0x89c2f7c918720353:0x3ef91d2e58469a3", "name": "5 Washington Pl", "name_nyu": "5 Washington Pl", "city": "Cliffside Park", "borough": null}, "60 5Th Ave": {"lat": 40.735016, "lng": -73.99480199999999, "address": "60 5th Ave, New York, NY 10011, USA", "id": "ChIJ2UqDh5dZwokRwgidiJIrQEs", "url": "https://maps.google.com/?q=60+5th+Ave,+New+York,+NY+10011,+USA&ftid=0x89c2599787834ad9:0x4b402b92889d08c2", "name": "60 5th Ave", "name_nyu": "60 5th Ave", "city": "New York", "borough": "Manhattan"}, "194 Mercer St": {"lat": 40.7262715, "lng": -73.9966443, "address": "194 Mercer Street, New York, NY 10012, USA", "id": "ChIJHa9vx49ZwokRbteKkSjsgo4", "url": "https://maps.google.com/?q=194+Mercer+Street&ftid=0x89c2598fc76faf1d:0x8e82ec28918ad76e", "name": "194 Mercer Street", "name_nyu": "194 Mercer St", "city": "New York", "borough": "Manhattan"}, "19 University Pl": {"lat": 40.73132, "lng": -73.9947104, "address": "19 University Pl, New York, NY 10003, USA", "id": "ChIJd2n8ppBZwokR3lfrfyRshvk", "url": "https://maps.google.com/?q=19+University+Pl,+New+York,+NY+10003,+USA&ftid=0x89c25990a6fc6977:0xf9866c247feb57de", "name": "19 University Pl", "name_nyu": "19 University Pl", "city": "New York", "borough": "Manhattan"}, "Casa Italiana": {"lat": 40.7349601, "lng": -73.9957982, "address": "24 W 12th St, New York, NY 10011, United States", "id": "ChIJd_0lnJdZwokRB8bjGqkyVsE", "url": "https://maps.google.com/?cid=13931378199199204871", "name": "Casa Italiana New York University", "name_nyu": "Casa Italiana", "city": "New York", "borough": "Manhattan"}, "19 W 4Th St": {"lat": 40.72910359999999, "lng": -73.9951974, "address": "19 West 4th Street, New York, NY 10012, USA", "id": "ChIJD0CdcJBZwokRqUxcn66elkg", "url": "https://maps.google.com/?q=19+West+4th+Street,+New+York,+NY+10012,+USA&ftid=0x89c25990709d400f:0x48969eae9f5c4ca9", "name": "19 West 4th Street", "name_nyu": "19 W 4th St", "city": "New York", "borough": "Manhattan"}, "45 West 4Th": {"lat": 40.7295762, "lng": -73.9963034, "address": "45 West 4th Street, New York, NY 10012, USA", "id": "Eis0NSBXZXN0IDR0aCBTdHJlZXQsIE5ldyBZb3JrLCBOWSAxMDAxMiwgVVNBIjASLgoUChIJHTZlZ5BZwokRGxwC1VhJe68QLSoUChIJc-KJid_034cRqdqagR9lYBE", "url": "https://maps.google.com/?q=45+West+4th+Street,+New+York,+NY+10012,+USA&ftid=0x89c259906765361d:0x2fa4eab6e830f57f", "name": "45 West 4th Street", "name_nyu": "45 West 4th", "city": "New York", "borough": "Manhattan"}, "20 Cooper Square": {"lat": 40.7279494, "lng": -73.9915334, "address": "20 Cooper Sq, New York, NY 10003, USA", "id": "ChIJyTBoH5tZwokRE8gvRxNlx1k", "url": "https://maps.google.com/?q=20+Cooper+Sq,+New+York,+NY+10003,+USA&ftid=0x89c2599b1f6830c9:0x59c76513472fc813", "name": "20 Cooper Sq", "name_nyu": "20 Cooper Square", "city": "New York", "borough": "Manhattan"}, "Kimmel University Center": {"lat": 40.72993659999999, "lng": -73.9978275, "address": "60 Washington Square S, New York, NY 10012, United States", "id": "ChIJn2TxqpFZwokRuM-MF7zWH44", "url": "https://maps.google.com/?cid=10241140181001097144", "name": "Kimmel Center for University Life", "name_nyu": "Kimmel University Center", "city": "New York", "borough": "Manhattan"}, "King Juan Carlos Center": {"lat": 40.7304155, "lng": -73.9985718, "address": "53 Washington Square S, New York, NY 10012, United States", "id": "ChIJS2LSCJFZwokRGTVDrqtYYUI", "url": "https://maps.google.com/?cid=4783201773630469401", "name": "King Juan Carlos I of Spain Center", "name_nyu": "King Juan Carlos Center", "city": "New York", "borough": "Manhattan"}, "24 W 12Th St": {"lat": 40.7349286, "lng": -73.9957893, "address": "24 W 12th St, New York, NY 10011, USA", "id": "ChIJqZUgK5hZwokRVXXpNThvVj4", "url": "https://maps.google.com/?q=24+W+12th+St,+New+York,+NY+10011,+USA&ftid=0x89c259982b2095a9:0x3e566f3835e97555", "name": "24 W 12th St", "name_nyu": "24 W 12th St", "city": "New York", "borough": "Manhattan"}, "Ireland House": {"lat": 40.7316673, "lng": -73.996478, "address": "Glucksman Ireland House, 1 5th Ave, New York, NY 10003, USA", "id": "ChIJp0l9uJBZwokRUO9fAxxfZ3o", "url": "https://maps.google.com/?q=Glucksman+Ireland+House&ftid=0x89c25990b87d49a7:0x7a675f1c035fef50", "name": "Glucksman Ireland House", "name_nyu": "Ireland House", "city": "New York", "borough": "Manhattan"}, "East Building": {"lat": 40.7296978, "lng": -73.9955032, "address": "239 Greene St, New York, NY 10003, United States", "id": "ChIJR-KBYpBZwokRO-u2MZGY2nk", "url": "https://maps.google.com/?cid=8780498172883954491", "name": "NYU Steinhardt, East Building", "name_nyu": "East Building", "city": "New York", "borough": "Manhattan"}, "Rubin Hall": {"lat": 40.73347529999999, "lng": -73.9951669, "address": "35 5th Ave, New York, NY 10003, United States", "id": "ChIJLxTUZpdZwokRQT9YPnczsxA", "url": "https://maps.google.com/?cid=1203362112678149953", "name": "Rubin Hall", "name_nyu": "Rubin Hall", "city": "New York", "borough": "Manhattan"}, "726 Broadway": {"lat": 40.7293717, "lng": -73.99315229999999, "address": "726 Broadway, New York, NY 10003, USA", "id": "ChIJUcyuippZwokRxPOTzax7Ld0", "url": "https://maps.google.com/?q=726+Broadway,+New+York,+NY+10003,+USA&ftid=0x89c2599a8aaecc51:0xdd2d7baccd93f3c4", "name": "726 Broadway", "name_nyu": "726 Broadway", "city": "New York", "borough": "Manhattan"}, "Deutsches Haus": {"lat": 40.7313432, "lng": -73.99524269999999, "address": "Deutsches Haus, 42 Washington Mews, New York, NY 10003, USA", "id": "ChIJl8b4pJBZwokRh7i8Vd7Wt5w", "url": "https://maps.google.com/?q=Deutsches+Haus&ftid=0x89c25990a4f8c697:0x9cb7d6de55bcb887", "name": "Deutsches Haus", "name_nyu": "Deutsches Haus", "city": "New York", "borough": "Manhattan"}, "10 Washington Pl": {"lat": 40.72937, "lng": -73.9950013, "address": "Student Services Block, 10 Washington Pl, New York, NY 10003, USA", "id": "ChIJ5abfe5BZwokRSET6bscIkWk", "url": "https://maps.google.com/?q=Student+Services+Block&ftid=0x89c259907bdfa6e5:0x699108c76efa4448", "name": "Student Services Block", "name_nyu": "10 Washington Pl", "city": "New York", "borough": "Manhattan"}, "1 Park Ave": {"lat": 40.7459302, "lng": -73.98146249999999, "address": "1 Park Ave, New York, NY 10016, USA", "id": "ChIJybcW6QdZwokRIW4BQBoYX8A", "url": "https://maps.google.com/?q=1+Park+Ave,+New+York,+NY+10016,+USA&ftid=0x89c25907e916b7c9:0xc05f181a40016e21", "name": "1 Park Ave", "name_nyu": "1 Park Ave", "city": "New York", "borough": "Manhattan"}, "58 W 10Th St": {"lat": 40.7343531, "lng": -73.997993, "address": "58 W 10th St, New York, NY 10011, USA", "id": "ChIJl0ZF45ZZwokRx777IGsPSYg", "url": "https://maps.google.com/?q=58+W+10th+St,+New+York,+NY+10011,+USA&ftid=0x89c25996e3454697:0x88490f6b20fbbec7", "name": "58 W 10th St", "name_nyu": "58 W 10th St", "city": "New York", "borough": "Manhattan"}, "Warren Weaver Hall": {"lat": 40.7286882, "lng": -73.99564769999999, "address": "251 Mercer St, New York, NY 10012, United States", "id": "ChIJuUOxbZBZwokRb4GwF3qrRO0", "url": "https://maps.google.com/?cid=17096978626277048687", "name": "Warren Weaver Hall (CIWW)", "name_nyu": "Warren Weaver Hall", "city": "New York", "borough": "Manhattan"}, "Rogers Hall": {"lat": 40.6941153, "lng": -73.9870475, "address": "6 MetroTech Center, Brooklyn, NY 11201, United States", "id": "ChIJF_jqUUpawokRD-zkPSckwLk", "url": "https://maps.google.com/?cid=13384737843505851407", "name": "Rogers Hall", "name_nyu": "Rogers Hall", "city": null, "borough": "Brooklyn"}, "Jacobs Academic Building": {"lat": 40.6942903, "lng": -73.9869992, "address": "6 MetroTech Center, Brooklyn, NY 11201, United States", "id": "ChIJCZDpREpawokRRJjAwl6sj2g", "url": "https://maps.google.com/?cid=7534430224608434244", "name": "NYU Jacobs Academic Building", "name_nyu": "Jacobs Academic Building", "city": null, "borough": "Brooklyn"}, "708 Broadway": {"lat": 40.728638, "lng": -73.99363149999999, "address": "708 Broadway, New York, NY 10003, USA", "id": "ChIJ5_vRk5pZwokR6lc9c7xfzJY", "url": "https://maps.google.com/?q=708+Broadway,+New+York,+NY+10003,+USA&ftid=0x89c2599a93d1fbe7:0x96cc5fbc733d57ea", "name": "708 Broadway", "name_nyu": "708 Broadway", "city": "New York", "borough": "Manhattan"}, "Kevorkian Center": {"lat": 40.7304792, "lng": -73.9988892, "address": "50 Washington Square S, New York, NY 10012, United States", "id": "ChIJ7U8eDJFZwokR3QOmXwS9VVY", "url": "https://maps.google.com/?cid=6221086286764442589", "name": "Hagop Kevorkian Center for Near Eastern Studies", "name_nyu": "Kevorkian Center", "city": "New York", "borough": "Manhattan"}, "721 Broadway": {"lat": 40.72952550000001, "lng": -73.9938442, "address": "Broadway Block, 721 Broadway, New York, NY 10003, USA", "id": "ChIJTR51iJpZwokRwX-RGh8DhUI", "url": "https://maps.google.com/?q=Broadway+Block&ftid=0x89c2599a88751e4d:0x4285031f1a917fc1", "name": "Broadway Block", "name_nyu": "721 Broadway", "city": "New York", "borough": "Manhattan"}, "133 Macdougal St": {"lat": 40.7307554, "lng": -74.00000519999999, "address": "133 MacDougal St, New York, NY 10012, USA", "id": "ChIJYTpDepFZwokRPtvLfwyXgak", "url": "https://maps.google.com/?q=133+MacDougal+St,+New+York,+NY+10012,+USA&ftid=0x89c259917a433a61:0xa981970c7fcbdb3e", "name": "133 MacDougal St", "name_nyu": "133 MacDougal St", "city": "New York", "borough": "Manhattan"}, "Brown Building": {"lat": 40.7299562, "lng": -73.9954297, "address": "23 Washington Pl, New York, NY 10003, United States", "id": "ChIJM72shZBZwokRztOW_yxN3Yg", "url": "https://maps.google.com/?cid=9862123614673228750", "name": "Triangle Shirtwaist Factory", "name_nyu": "Brown Building", "city": "New York", "borough": "Manhattan"}, "Waverly Building": {"lat": 40.7302547, "lng": -73.9951456, "address": "24 Waverly Pl, New York, NY 10003, United States", "id": "ChIJLd1Fm5BZwokRfUfpfjRaJEk", "url": "https://maps.google.com/?cid=5270436645444339581", "name": "Waverly Building, NYU", "name_nyu": "Waverly Building", "city": "New York", "borough": "Manhattan"}, "2 Metrotech Ctr": {"lat": 40.6934331, "lng": -73.9859361, "address": "2 MetroTech Center, Brooklyn, NY 11201, USA", "id": "ChIJOfAg_kpawokRs1pwJfkF08Y", "url": "https://maps.google.com/?q=2+MetroTech+Center,+Brooklyn,+NY+11201,+USA&ftid=0x89c25a4afe20f039:0xc6d305f925705ab3", "name": "2 MetroTech Center", "name_nyu": "2 MetroTech Ctr", "city": null, "borough": "Brooklyn"}, "370 Jay St": {"lat": 40.6929116, "lng": -73.98746129999999, "address": "370 Jay St, Brooklyn, NY 11201, USA", "id": "ChIJEXvrwUtawokR8TgatcaFN-M", "url": "https://maps.google.com/?q=370+Jay+St,+Brooklyn,+NY+11201,+USA&ftid=0x89c25a4bc1eb7b11:0xe33785c6b51a38f1", "name": "370 Jay St", "name_nyu": "370 Jay St", "city": null, "borough": "Brooklyn"}, "244 Greene St": {"lat": 40.7300106, "lng": -73.9950059, "address": "244 Greene St, New York, NY 10003, USA", "id": "ChIJE7m_g5BZwokRW-wV2GhXvBc", "url": "https://maps.google.com/?q=244+Greene+St,+New+York,+NY+10003,+USA&ftid=0x89c2599083bfb913:0x17bc5768d815ec5b", "name": "244 Greene St", "name_nyu": "244 Greene St", "city": "New York", "borough": "Manhattan"}, "1 Washington Pl": {"lat": 40.7292847, "lng": -73.99391349999999, "address": "1 Washington Pl, New York, NY 10003, USA", "id": "ChIJUeOphZpZwokRaX_yGCShsEQ", "url": "https://maps.google.com/?q=1+Washington+Pl,+New+York,+NY+10003,+USA&ftid=0x89c2599a85a9e351:0x44b0a12418f27f69", "name": "1 Washington Pl", "name_nyu": "1 Washington Pl", "city": "New York", "borough": "Manhattan"}, "25 Waverly Pl": {"lat": 40.7324977, "lng": -73.9987022, "address": "25 Waverly Pl, New York, NY 10011, USA", "id": "EiYyNSBXYXZlcmx5IFBsLCBOZXcgWW9yaywgTlkgMTAwMTEsIFVTQSIwEi4KFAoSCW8eVkqRWcKJER6SW_qH5WzvEBkqFAoSCVk5lZyWWcKJEcrDO6Tp1U6K", "url": "https://maps.google.com/?q=25+Waverly+Pl,+New+York,+NY+10011,+USA&ftid=0x89c259914a561e6f:0xd42fba941e26de70", "name": "25 Waverly Pl", "name_nyu": "25 Waverly Pl", "city": "New York", "borough": "Manhattan"}, "Henry Kaufman Management Education Center": {"lat": 40.7290742, "lng": -73.9962202, "address": "44 West 4th Street, New York, NY 10012, United States", "id": "ChIJ74qkQ5BZwokRB1zZhTs_rJ4", "url": "https://maps.google.com/?cid=11433583078868081671", "name": "Kaufman Management Center", "name_nyu": "Henry Kaufman Management Education Center", "city": "New York", "borough": "Manhattan"}, "101 Astor Place": {"lat": 40.72995969999999, "lng": -73.9899512, "address": "101 Astor Pl, New York, NY 10003, USA", "id": "ChIJt0yEk5tZwokRUTu0ZVT4BvI", "url": "https://maps.google.com/?q=101+Astor+Pl,+New+York,+NY+10003,+USA&ftid=0x89c2599b93844cb7:0xf206f85465b43b51", "name": "101 Astor Pl", "name_nyu": "101 Astor Place", "city": "New York", "borough": "Manhattan"}, "Barney Building": {"lat": 40.7297904, "lng": -73.9882829, "address": "Barney Bldg, Stuyvesant St, New York, NY 10003, USA", "id": "ChIJt5N2cpxZwokRDhDXlxZwi9k", "url": "https://maps.google.com/?q=Barney+Building&ftid=0x89c2599c727693b7:0xd98b701697d7100e", "name": "Barney Bldg", "name_nyu": "Barney Building", "city": "New York", "borough": "Manhattan"}, "Barney": {"lat": 40.7356207, "lng": -73.9983391, "address": "467 6th Ave #1FL, New York, NY 10011, United States", "id": "ChIJN8XXT5ZZwokRWyr6fELz2LI", "url": "https://maps.google.com/?cid=12887317800610835035", "name": "Barneys Hardware", "name_nyu": "Barney", "city": "New York", "borough": "Manhattan"}, "Education Building": {"lat": 40.7296978, "lng": -73.9955032, "address": "239 Greene St, New York, NY 10003, United States", "id": "ChIJR-KBYpBZwokRO-u2MZGY2nk", "url": "https://maps.google.com/?cid=8780498172883954491", "name": "NYU Steinhardt, East Building", "name_nyu": "Education Building", "city": "New York", "borough": "Manhattan"}, "Kimball Hall": {"lat": 40.73013510000001, "lng": -73.9948738, "address": "Kimball Block, 246 Greene St, New York, NY 10003, United States", "id": "ChIJo9NADJpZwokRQUwQ8WHDSX8", "url": "https://maps.google.com/?cid=9172076941540346945", "name": "Kimball Hall", "name_nyu": "Kimball Hall", "city": "New York", "borough": "Manhattan"}, "665 Broadway": {"lat": 40.7273353, "lng": -73.9954884, "address": "665 Broadway, New York, NY 10012, USA", "id": "ChIJ-UqOApBZwokRt8eOicSyllM", "url": "https://maps.google.com/?q=665+Broadway,+New+York,+NY+10012,+USA&ftid=0x89c25990028e4af9:0x5396b2c4898ec7b7", "name": "665 Broadway", "name_nyu": "665 Broadway", "city": "New York", "borough": "Manhattan"}, "Pless Building": {"lat": 40.730033, "lng": -73.99606159999999, "address": "82 Washington Square E, New York, NY 10003, United States", "id": "ChIJwZVT9ZpZwokRjzYNAKDRed0", "url": "https://maps.google.com/?cid=15959017239689901711", "name": "New York University Pless Hall", "name_nyu": "Pless Building", "city": "New York", "borough": "Manhattan"}, "Pless Annex": {"lat": 40.730033, "lng": -73.99606159999999, "address": "82 Washington Square E, New York, NY 10003, United States", "id": "ChIJwZVT9ZpZwokRjzYNAKDRed0", "url": "https://maps.google.com/?cid=15959017239689901711", "name": "New York University Pless Hall", "name_nyu": "Pless Annex", "city": "New York", "borough": "Manhattan"}, "3Rd Ave North Dormitory": {"lat": 40.7315699, "lng": -73.9880196, "address": "75 3rd Ave, New York, NY 10003, United States", "id": "ChIJgUqlqJ5ZwokRyakNipOmkyc", "url": "https://maps.google.com/?cid=2851806141662210505", "name": "Third Avenue North", "name_nyu": "3rd Ave North Dormitory", "city": "New York", "borough": "Manhattan"}, "411 Lafayette St": {"lat": 40.7283298, "lng": -73.9921394, "address": "411 Lafayette St, New York, NY 10003, USA", "id": "ChIJLbX745pZwokRZHer3UF0I3w", "url": "https://maps.google.com/?q=411+Lafayette+St,+New+York,+NY+10003,+USA&ftid=0x89c2599ae3fbb52d:0x7c237441ddab7764", "name": "411 Lafayette St", "name_nyu": "411 Lafayette St", "city": "New York", "borough": "Manhattan"}, "433 1St Ave": {"lat": 40.7386834, "lng": -73.97776879999999, "address": "433 1st Ave., New York, NY 10010, USA", "id": "ChIJ55AA8QtZwokRkrOyLmSm7-M", "url": "https://maps.google.com/?q=433+1st+Ave.,+New+York,+NY+10010,+USA&ftid=0x89c2590bf10090e7:0xe3efa6642eb2b392", "name": "433 1st Ave.", "name_nyu": "433 1st Ave", "city": "New York", "borough": "Manhattan"}, "NYU Langone Orthopedic Hospita": {"lat": 40.7343763, "lng": -73.98302919999999, "address": "301 E 17th St, New York, NY 10010, United States", "id": "ChIJ2cGdX3VZwokRqolkhYCXL2o", "url": "https://maps.google.com/?cid=7651500870175328682", "name": "NYU Langone Orthopedic Hospital", "name_nyu": "NYU Langone Orthopedic Hospita", "city": "New York", "borough": "Manhattan"}, "443 1St Ave": {"lat": 40.7387942, "lng": -73.977147, "address": "443 1st Ave., New York, NY 10010, USA", "id": "EiU0NDMgMXN0IEF2ZS4sIE5ldyBZb3JrLCBOWSAxMDAxMCwgVVNBIjESLwoUChIJVS5g9gtZwokR6k1susZ6T08QuwMqFAoSCVNECJ7CWMKJEZ64MA01aPcr", "url": "https://maps.google.com/?q=443+1st+Ave.,+New+York,+NY+10010,+USA&ftid=0x89c2590bf6602e55:0x32967fa5ab696a78", "name": "443 1st Ave.", "name_nyu": "443 1st Ave", "city": "New York", "borough": "Manhattan"}, "NYU Langone Tisch Hospital": {"lat": 40.742193, "lng": -73.9739553, "address": "550 1st Ave., New York, NY 10016, United States", "id": "ChIJzQtHCQ9ZwokRt0QutuNH8Yg", "url": "https://maps.google.com/?cid=9867747301885101239", "name": "Tisch Hospital", "name_nyu": "NYU Langone Tisch Hospital", "city": "New York", "borough": "Manhattan"}, "NYU Kimmel Pavilion": {"lat": 40.7430167, "lng": -73.9729845, "address": "424 E 34th St, New York, NY 10016, United States", "id": "ChIJgz8wswZZwokRKdGY1kFc6fs", "url": "https://maps.google.com/?cid=18152141210936463657", "name": "Kimmel Pavilion", "name_nyu": "NYU Kimmel Pavilion", "city": "New York", "borough": "Manhattan"}, "NYU Langone Hospital": {"lat": 40.7420166, "lng": -73.9736534, "address": "550 1st Ave., New York, NY 10016, United States", "id": "ChIJdUrffUJZwokRwuMqrnBmhUo", "url": "https://maps.google.com/?cid=5369810764853601218", "name": "NYU Langone Health", "name_nyu": "NYU Langone Hospital", "city": "New York", "borough": "Manhattan"}, "NYU Langone Long Island": {"lat": 40.7407591, "lng": -73.643129, "address": "259 1st St, Mineola, NY 11501, United States", "id": "ChIJlRWCrVB9wokRn3Du74JugZg", "url": "https://maps.google.com/?cid=10989186074410905759", "name": "NYU Langone Hospital Long Island", "name_nyu": "NYU Langone Long Island", "city": "Mineola", "borough": null}, "Presbyterian Cornell": {"lat": 40.7643076, "lng": -73.9542869, "address": "525 E 68th St, New York, NY 10065, United States", "id": "ChIJWwL0jcNYwokRVCXGXtBSsgU", "url": "https://maps.google.com/?cid=410481570940855636", "name": "NewYork-Presbyterian / Weill Cornell Medical Center", "name_nyu": "Presbyterian Cornell", "city": "New York", "borough": "Manhattan"}, "Stephen D Hassenfeld Children": {"lat": 40.7446827, "lng": -73.9800115, "address": "160 E 32nd St 3rd floor, New York, NY 10016, United States", "id": "ChIJZ7lvgAhZwokRmeTAq171auw", "url": "https://maps.google.com/?cid=17035698327439598745", "name": "Stephen D. Hassenfeld Children's Center for Cancer & Blood Disorders", "name_nyu": "Stephen D Hassenfeld Children", "city": "New York", "borough": "Manhattan"}, "NYU Langone Fink": {"lat": 40.7445881, "lng": -73.9800391, "address": "160 E 32nd St, New York, NY 10016, United States", "id": "ChIJZ7lvgAhZwokR-DXp-0_GgDE", "url": "https://maps.google.com/?cid=3567068951708513784", "name": "FINK Children's Ambulatory Care Center", "name_nyu": "NYU Langone Fink", "city": "New York", "borough": "Manhattan"}, "Sloan Kettering Chemo Op": {"lat": 40.7641925, "lng": -73.95624029999999, "address": "1275 York Ave, New York, NY 10065, United States", "id": "ChIJBdNursNYwokRqcBjfvi9FiA", "url": "https://maps.google.com/?cid=2312244333671334057", "name": "Memorial Sloan Kettering Cancer Center New York", "name_nyu": "Sloan Kettering Chemo OP", "city": "New York", "borough": "Manhattan"}, "NYU Langone Radiation Center": {"lat": 40.7462252, "lng": -73.978687, "address": "160 E 34th St, New York, NY 10016, United States", "id": "ChIJAcYcPwZZwokRflz3s9rCGvo", "url": "https://maps.google.com/?cid=18021931103454452862", "name": "NYU Radiation Oncology Associates", "name_nyu": "NYU Langone Radiation Center", "city": "New York", "borough": "Manhattan"}, "NYU Langone Orthopedic C4C/Ic/": {"lat": 40.7343763, "lng": -73.98302919999999, "address": "301 E 17th St, New York, NY 10010, United States", "id": "ChIJ2cGdX3VZwokRqolkhYCXL2o", "url": "https://maps.google.com/?cid=7651500870175328682", "name": "NYU Langone Orthopedic Hospital", "name_nyu": "NYU Langone Orthopedic C4C/IC/", "city": "New York", "borough": "Manhattan"}, "Vns Stanley Isaacs": {"lat": 40.781175, "lng": -73.94526429999999, "address": "415 E 93rd St, New York, NY 10128, United States", "id": "ChIJE7XUd6ZYwokRJn1ds7jM1X8", "url": "https://maps.google.com/?cid=9211493706511514918", "name": "Stanley M. Isaacs Neighborhood Center", "name_nyu": "VNS Stanley Isaacs", "city": "New York", "borough": "Manhattan"}, "NYU Langone Infusion Center 38": {"lat": 40.7473324, "lng": -73.9749988, "address": "240 E 38th St 19th Floor, New York, NY 10016, United States", "id": "ChIJM38sRQRZwokRCRUK_HXQlO0", "url": "https://maps.google.com/?cid=17119537288700368137", "name": "NYU Langone Laura and Isaac Perlmutter Cancer Center", "name_nyu": "NYU Langone Infusion Center 38", "city": "New York", "borough": "Manhattan"}, "Sunset Park 5718 Second Avenue": {"lat": 40.644951, "lng": -74.0215024, "address": "5718 2nd Ave, Brooklyn, NY 11220, USA", "id": "ChIJCT_9UaxawokRyYyGGNH3oW0", "url": "https://maps.google.com/?q=5718+2nd+Ave,+Brooklyn,+NY+11220,+USA&ftid=0x89c25aac51fd3f09:0x6da1f7d118868cc9", "name": "5718 2nd Ave", "name_nyu": "Sunset Park 5718 Second Avenue", "city": null, "borough": "Brooklyn"}, "NYU Langone Infusion Center 34": {"lat": 40.745759, "lng": -73.97875979999999, "address": "160 E 34th St, New York, NY 10016, United States", "id": "ChIJVbwbPwZZwokRKFivRFEZv9Q", "url": "https://maps.google.com/?cid=15329999493427845160", "name": "Perlmutter Cancer Center", "name_nyu": "NYU Langone Infusion Center 34", "city": "New York", "borough": "Manhattan"}, "NYU Langone Rad Energy Buildi": {"lat": 40.7422466, "lng": -73.9743032, "address": "Energy Building, 560 1st Ave. 2nd floor, New York, NY 10016, United States", "id": "ChIJtXHrBw9ZwokRvREXwZ67L90", "url": "https://maps.google.com/?cid=15938163896806216125", "name": "NYU Radiation Oncology Associates", "name_nyu": "NYU Langone Rad Energy Buildi", "city": "New York", "borough": "Manhattan"}, "Presbyterian Morgan Stanley": {"lat": 40.8398, "lng": -73.9414359, "address": "3959 Broadway, New York, NY 10032, United States", "id": "ChIJM9B1m5z2wokRjx1OxlHefnc", "url": "https://maps.google.com/?cid=8610563980379692431", "name": "NewYork-Presbyterian Morgan Stanley Children's Hospital Emergency Department", "name_nyu": "Presbyterian Morgan Stanley", "city": "New York", "borough": "Manhattan"}, "Institute Of French Studies": {"lat": 40.7311824, "lng": -73.99536839999999, "address": "Institute of French Studies, New York, NY 10003, USA", "id": "ChIJQ6Rlo5BZwokRlEFgPkGy5ZM", "url": "https://maps.google.com/?q=Institute+of+French+Studies&ftid=0x89c25990a365a443:0x93e5b2413e604194", "name": "Institute of French Studies", "name_nyu": "Institute of French Studies", "city": "New York", "borough": "Manhattan"}, "14 E78 St": {"lat": 40.7757357, "lng": -73.96351729999999, "address": "14 E 78th St, New York, NY 10075, USA", "id": "ChIJY2ZQR5RYwokRaGZzPB-6g4k", "url": "https://maps.google.com/?q=14+E+78th+St,+New+York,+NY+10075,+USA&ftid=0x89c2589447506663:0x8983ba1f3c736668", "name": "14 E 78th St", "name_nyu": "14 E78 St", "city": "New York", "borough": "Manhattan"}, "Institute For The Study Of The Ancient World": {"lat": 40.779928, "lng": -73.9602626, "address": "15 E 84th St, New York, NY 10028, United States", "id": "ChIJH1uMxJdYwokR2IY4lOmeGHQ", "url": "https://maps.google.com/?cid=8365611033891997400", "name": "Institute for the Study of the Ancient World", "name_nyu": "Institute for the Study of the Ancient World", "city": "New York", "borough": "Manhattan"}, "24 E 8Th St": {"lat": 40.7316678, "lng": -73.9951892, "address": "24 E 8th St, New York, NY 10003, USA", "id": "ChIJc73arpBZwokR1rm7F7mzwSI", "url": "https://maps.google.com/?q=24+E+8th+St,+New+York,+NY+10003,+USA&ftid=0x89c25990aedabd73:0x22c1b3b917bbb9d6", "name": "24 E 8th St", "name_nyu": "24 E 8th St", "city": "New York", "borough": "Manhattan"}, "14 Univ Pl": {"lat": 40.7315506, "lng": -73.9950811, "address": "14 University Pl, New York, NY 10003, USA", "id": "ChIJ40K3qJBZwokR486eMDvddu0", "url": "https://maps.google.com/?q=14+University+Pl,+New+York,+NY+10003,+USA&ftid=0x89c25990a8b742e3:0xed76dd3b309ecee3", "name": "14 University Pl", "name_nyu": "14 Univ Pl", "city": "New York", "borough": "Manhattan"}, "Vanderbilt Hall": {"lat": 40.7524948, "lng": -73.9774474, "address": "87 E 42nd St Vanderbilt Hall, New York, NY 10017, USA", "id": "ChIJBy6iiAFZwokRkY1nHyNMoKY", "url": "https://maps.google.com/?q=87+E+42nd+St+Vanderbilt+Hall,+New+York,+NY+10017,+USA&ftid=0x89c2590188a22e07:0xa6a04c231f678d91", "name": "87 E 42nd St Vanderbilt Hall", "name_nyu": "Vanderbilt Hall", "city": "New York", "borough": "Manhattan"}, "J Furman Hall": {"lat": 40.7301474, "lng": -73.9989164, "address": "245 Sullivan St, New York, NY 10012, United States", "id": "ChIJeYORoJFZwokRJzeLcXkbapE", "url": "https://maps.google.com/?cid=10478217691440822055", "name": "Furman Hall", "name_nyu": "J Furman Hall", "city": "New York", "borough": "Manhattan"}, "The Institute Of Fine Arts": {"lat": 40.7764712, "lng": -73.96363869999999, "address": "1 E 78th St, New York, NY 10075, United States", "id": "ChIJmxFBI5RYwokRDPb55G8s4Ao", "url": "https://maps.google.com/?cid=783675194257045004", "name": "Institute of Fine Arts, New York University", "name_nyu": "The Institute of Fine Arts", "city": "New York", "borough": "Manhattan"}, "Laguardia Co": {"lat": 40.7283821, "lng": -73.9982383, "address": "539 LaGuardia Pl, New York, NY 10012, United States", "id": "ChIJOZrGxZFZwokRQFHEN--h_jY", "url": "https://maps.google.com/?cid=3962782770937483584", "name": "NYU LaGuardia Student Technology Center and Computer Lab", "name_nyu": "LaGuardia Co", "city": "New York", "borough": "Manhattan"}, "Kevo Library": {"lat": 40.7304792, "lng": -73.9988892, "address": "50 Washington Square S, New York, NY 10012, United States", "id": "ChIJ7U8eDJFZwokR3QOmXwS9VVY", "url": "https://maps.google.com/?cid=6221086286764442589", "name": "Hagop Kevorkian Center for Near Eastern Studies", "name_nyu": "KEVO Library", "city": "New York", "borough": "Manhattan"}, "295 Lafayette St": {"lat": 40.7244739, "lng": -73.995445, "address": "Puck Bldg, 295 Lafayette St, New York, NY 10012, USA", "id": "ChIJoeTAeY9ZwokRu9Vu0NaamJs", "url": "https://maps.google.com/?q=Puck+Building&ftid=0x89c2598f79c0e4a1:0x9b989ad6d06ed5bb", "name": "Puck Bldg", "name_nyu": "295 Lafayette St", "city": "New York", "borough": "Manhattan"}, "240 Greene St": {"lat": 40.7293507, "lng": -73.9954918, "address": "240 Greene St, New York, NY 10012, USA", "id": "ChIJbU4RZZBZwokR-Htcepk5SIE", "url": "https://maps.google.com/?q=240+Greene+St,+New+York,+NY+10012,+USA&ftid=0x89c2599065114e6d:0x814839997a5c7bf8", "name": "240 Greene St", "name_nyu": "240 Greene St", "city": "New York", "borough": "Manhattan"}, "Pless Hall": {"lat": 40.730033, "lng": -73.99606159999999, "address": "82 Washington Square E, New York, NY 10003, United States", "id": "ChIJwZVT9ZpZwokRjzYNAKDRed0", "url": "https://maps.google.com/?cid=15959017239689901711", "name": "New York University Pless Hall", "name_nyu": "Pless Hall", "city": "New York", "borough": "Manhattan"}, "370 Jay Street": {"lat": 40.6929116, "lng": -73.98746129999999, "address": "370 Jay St, Brooklyn, NY 11201, USA", "id": "ChIJEXvrwUtawokR8TgatcaFN-M", "url": "https://maps.google.com/?q=370+Jay+St,+Brooklyn,+NY+11201,+USA&ftid=0x89c25a4bc1eb7b11:0xe33785c6b51a38f1", "name": "370 Jay St", "name_nyu": "370 Jay Street", "city": null, "borough": "Brooklyn"}, "196 Mercer Street": {"lat": 40.726265, "lng": -73.99663869999999, "address": "196 Mercer St, New York, NY 10012, USA", "id": "ChIJJwP6uo9ZwokR5xdWl5IxXDE", "url": "https://maps.google.com/?q=196+Mercer+St,+New+York,+NY+10012,+USA&ftid=0x89c2598fbafa0327:0x315c3192975617e7", "name": "196 Mercer St", "name_nyu": "196 Mercer street", "city": "New York", "borough": "Manhattan"}, "1 Washington Square North": {"lat": 40.7309402, "lng": -73.99558859999999, "address": "1 Washington Square N, New York, NY 10003, USA", "id": "ChIJf8aq6pBZwokRE2DFse2Idxk", "url": "https://maps.google.com/?q=1+Washington+Square+N,+New+York,+NY+10003,+USA&ftid=0x89c25990eaaac67f:0x197788edb1c56013", "name": "1 Washington Square N", "name_nyu": "1 Washington Square North", "city": "New York", "borough": "Manhattan"}, "715 Broadway": {"lat": 40.7293071, "lng": -73.9937044, "address": "715 Broadway, New York, NY 10012, USA", "id": "ChIJ03okQBpZwokRfmPD1Khmjx8", "url": "https://maps.google.com/?q=715+Broadway,+New+York,+NY+10012,+USA&ftid=0x89c2591a40247ad3:0x1f8f66a8d4c3637e", "name": "715 Broadway", "name_nyu": "715 Broadway", "city": "New York", "borough": "Manhattan"}, "111 2Nd Ave": {"lat": 40.7278348, "lng": -73.9886502, "address": "111, 113A Second Avenue, 111 2nd Ave, New York, NY 10003, USA", "id": "ChIJ8_GanpxZwokR5sqpPjHyYHM", "url": "https://maps.google.com/?q=111,+113A+Second+Avenue&ftid=0x89c2599c9e9af1f3:0x7360f2313ea9cae6", "name": "111, 113A Second Avenue", "name_nyu": "111 2nd Ave", "city": "New York", "borough": "Manhattan"}, "719 Broadway": {"lat": 40.7293822, "lng": -73.9937753, "address": "719 Broadway, New York, NY 10003, USA", "id": "ChIJ9TH7iZpZwokRMtfiROjI0-4", "url": "https://maps.google.com/?q=719+Broadway,+New+York,+NY+10003,+USA&ftid=0x89c2599a89fb31f5:0xeed3c8e844e2d732", "name": "719 Broadway", "name_nyu": "719 Broadway", "city": "New York", "borough": "Manhattan"}, "48 W 21 St 8Th Fl": {"lat": 40.7411202, "lng": -73.9927992, "address": "48 W 21st St #8th, New York, NY 10010, USA", "id": "Eio0OCBXIDIxc3QgU3QgIzh0aCwgTmV3IFlvcmssIE5ZIDEwMDEwLCBVU0EiHxodChYKFAoSCT_VuFgOWcKJEcdCs96vB-FYEgM4dGg", "url": "https://maps.google.com/?q=48+W+21st+St+%238th,+New+York,+NY+10010,+USA&ftid=0x89c2590e58b8d53f:0x77cbdba6516d18f8", "name": "48 W 21st St #8th", "name_nyu": "48 W 21 St 8th Fl", "city": "New York", "borough": "Manhattan"}, "19 Wash Sq North": {"lat": 40.73193879999999, "lng": -73.9975408, "address": "19 Washington Square N, New York, NY 10011, USA", "id": "ChIJN-gq0pBZwokRpt_2Nlu571o", "url": "https://maps.google.com/?q=19+Washington+Square+N,+New+York,+NY+10011,+USA&ftid=0x89c25990d22ae837:0x5aefb95b36f6dfa6", "name": "19 Washington Square N", "name_nyu": "19 Wash Sq North", "city": "New York", "borough": "Manhattan"}, "Dibner Building": {"lat": 40.6946976, "lng": -73.9856659, "address": "5 MetroTech Center #3840, Brooklyn, NY 11201, United States", "id": "ChIJrcmC90pawokRmq_f-MENsko", "url": "https://maps.google.com/?cid=5382379631416422298", "name": "Bern Dibner Library of Science and Technology", "name_nyu": "Dibner Building", "city": null, "borough": "Brooklyn"}, "325 Gold Street": {"lat": 40.6946118, "lng": -73.98295949999999, "address": "325 Gold St, Brooklyn, NY 11201, USA", "id": "ChIJ70dPtUpawokR1o3GsAEpM7A", "url": "https://maps.google.com/?q=325+Gold+St,+Brooklyn,+NY+11201,+USA&ftid=0x89c25a4ab54f47ef:0xb0332901b0c68dd6", "name": "325 Gold St", "name_nyu": "325 Gold Street", "city": null, "borough": "Brooklyn"}, "Dibner": {"lat": 40.6946976, "lng": -73.9856659, "address": "5 MetroTech Center #3840, Brooklyn, NY 11201, United States", "id": "ChIJrcmC90pawokRmq_f-MENsko", "url": "https://maps.google.com/?cid=5382379631416422298", "name": "Bern Dibner Library of Science and Technology", "name_nyu": "Dibner", "city": null, "borough": "Brooklyn"}, "14A Washington Mews": {"lat": 40.7313028, "lng": -73.99549329999999, "address": "14A Washington Mews, New York, NY 10003, USA", "id": "ChIJRTBLu5BZwokR392Vl1BnrJY", "url": "https://maps.google.com/?q=14A+Washington+Mews,+New+York,+NY+10003,+USA&ftid=0x89c25990bb4b3045:0x96ac67509795dddf", "name": "14A Washington Mews", "name_nyu": "14A Washington Mews", "city": "New York", "borough": "Manhattan"}, "725 Broadway": {"lat": 40.7295031, "lng": -73.9935935, "address": "725 Broadway, New York, NY 10003, USA", "id": "ChIJATGTYZpZwokREEe5g0yX4Js", "url": "https://maps.google.com/?q=725+Broadway,+New+York,+NY+10003,+USA&ftid=0x89c2599a61933101:0x9be0974c83b94710", "name": "725 Broadway", "name_nyu": "725 BROADWAY", "city": "New York", "borough": "Manhattan"}}